airports_040: 
  country_code: US
  city: Houston
  name: George Bush Intcntl Houston
  updated_at: 0000-00-00 00:00:00
  boarding_gate_cost_new_default: 0
  taxi_duration_default: 70
  altitude: 97
  code: IAH
  country: United States
  timezone_id: -6
  lng: -95.3414
  iata: IAH
  id: 40
  terminal_cost_new: 0
  dst_code: A
  display_name: George Bush Intcntl Houston Airport
  icao: KIAH
  lat: 29.9844
  created_at: 0000-00-00 00:00:00
airports_099: 
  country_code: US
  city: St. Louis
  name: Lambert St Louis Intl
  updated_at: 0000-00-00 00:00:00
  boarding_gate_cost_new_default: 0
  taxi_duration_default: 70
  altitude: 618
  code: STL
  country: United States
  timezone_id: -6
  lng: -90.37
  iata: STL
  id: 99
  terminal_cost_new: 0
  dst_code: A
  display_name: Lambert St. Louis Intl Airport
  icao: KSTL
  lat: 38.7487
  created_at: 0000-00-00 00:00:00
airports_012: 
  country_code: US
  city: Nashville
  name: Nashville Intl
  updated_at: 0000-00-00 00:00:00
  boarding_gate_cost_new_default: 0
  taxi_duration_default: 70
  altitude: 599
  code: BNA
  country: United States
  timezone_id: -6
  lng: -86.6782
  iata: BNA
  id: 12
  terminal_cost_new: 0
  dst_code: A
  display_name: Nashville Intl Airport
  icao: KBNA
  lat: 36.1245
  created_at: 0000-00-00 00:00:00
airports_041: 
  country_code: US
  city: Wichita
  name: Wichita Mid Continent
  updated_at: 0000-00-00 00:00:00
  boarding_gate_cost_new_default: 0
  taxi_duration_default: 70
  altitude: 1333
  code: ICT
  country: United States
  timezone_id: -6
  lng: -97.4331
  iata: ICT
  id: 41
  terminal_cost_new: 0
  dst_code: A
  display_name: Wichita Mid Continent Airport
  icao: KICT
  lat: 37.6499
  created_at: 0000-00-00 00:00:00
airports_013: 
  country_code: US
  city: Boise
  name: Boise Air Terminal
  updated_at: 0000-00-00 00:00:00
  boarding_gate_cost_new_default: 0
  taxi_duration_default: 70
  altitude: 2871
  code: BOI
  country: United States
  timezone_id: -7
  lng: -116.223
  iata: BOI
  id: 13
  terminal_cost_new: 0
  dst_code: A
  display_name: Boise Air Terminal Airport
  icao: KBOI
  lat: 43.5644
  created_at: 0000-00-00 00:00:00
airports_042: 
  country_code: US
  city: Indianapolis
  name: Indianapolis Intl
  updated_at: 0000-00-00 00:00:00
  boarding_gate_cost_new_default: 0
  taxi_duration_default: 70
  altitude: 797
  code: IND
  country: United States
  timezone_id: -5
  lng: -86.2944
  iata: IND
  id: 42
  terminal_cost_new: 0
  dst_code: A
  display_name: Indianapolis Intl Airport
  icao: KIND
  lat: 39.7173
  created_at: 0000-00-00 00:00:00
airports_014: 
  country_code: US
  city: Boston
  name: General Edward Lawrence Logan Intl
  updated_at: 0000-00-00 00:00:00
  boarding_gate_cost_new_default: 0
  taxi_duration_default: 70
  altitude: 19
  code: BOS
  country: United States
  timezone_id: -5
  lng: -71.0052
  iata: BOS
  id: 14
  terminal_cost_new: 0
  dst_code: A
  display_name: Boston - General Edward Lawrence Logan Intl Airport
  icao: KBOS
  lat: 42.3643
  created_at: 0000-00-00 00:00:00
airports_070: 
  country_code: US
  city: New Orleans
  name: Louis Armstrong New Orleans Intl
  updated_at: 0000-00-00 00:00:00
  boarding_gate_cost_new_default: 0
  taxi_duration_default: 70
  altitude: 4
  code: MSY
  country: United States
  timezone_id: -6
  lng: -90.258
  iata: MSY
  id: 70
  terminal_cost_new: 0
  dst_code: A
  display_name: Louis Armstrong New Orleans Intl Airport
  icao: KMSY
  lat: 29.9934
  created_at: 0000-00-00 00:00:00
airports_043: 
  country_code: US
  city: Islip
  name: Long Island Mac Arthur
  updated_at: 0000-00-00 00:00:00
  boarding_gate_cost_new_default: 0
  taxi_duration_default: 70
  altitude: 99
  code: ISP
  country: United States
  timezone_id: -5
  lng: -73.1002
  iata: ISP
  id: 43
  terminal_cost_new: 0
  dst_code: A
  display_name: Islip - Long Island Mac Arthur Airport
  icao: KISP
  lat: 40.7952
  created_at: 0000-00-00 00:00:00
airports_015: 
  country_code: US
  city: Brownsville
  name: Brownsville South Padre Island Intl
  updated_at: 0000-00-00 00:00:00
  boarding_gate_cost_new_default: 0
  taxi_duration_default: 70
  altitude: 22
  code: BRO
  country: United States
  timezone_id: -6
  lng: -97.4259
  iata: BRO
  id: 15
  terminal_cost_new: 0
  dst_code: A
  display_name: Brownsville South Padre Island Intl Airport
  icao: KBRO
  lat: 25.9068
  created_at: 0000-00-00 00:00:00
airports_071: 
  country_code: US
  city: Myrtle Beach
  name: Myrtle Beach Intl
  updated_at: 0000-00-00 00:00:00
  boarding_gate_cost_new_default: 0
  taxi_duration_default: 70
  altitude: 25
  code: MYR
  country: United States
  timezone_id: -5
  lng: -78.9283
  iata: MYR
  id: 71
  terminal_cost_new: 0
  dst_code: A
  display_name: Myrtle Beach Intl Airport
  icao: KMYR
  lat: 33.6797
  created_at: 0000-00-00 00:00:00
airports_044: 
  country_code: US
  city: Ithaca
  name: Ithaca Tompkins Rgnl
  updated_at: 0000-00-00 00:00:00
  boarding_gate_cost_new_default: 0
  taxi_duration_default: 70
  altitude: 1099
  code: ITH
  country: United States
  timezone_id: -5
  lng: -76.4584
  iata: ITH
  id: 44
  terminal_cost_new: 0
  dst_code: A
  display_name: Ithaca Tompkins Rgnl Airport
  icao: KITH
  lat: 42.491
  created_at: 0000-00-00 00:00:00
airports_016: 
  country_code: US
  city: Baton Rouge
  name: Baton Rouge Metro Ryan Fld
  updated_at: 0000-00-00 00:00:00
  boarding_gate_cost_new_default: 0
  taxi_duration_default: 70
  altitude: 70
  code: BTR
  country: United States
  timezone_id: -6
  lng: -91.1496
  iata: BTR
  id: 16
  terminal_cost_new: 0
  dst_code: A
  display_name: Baton Rouge Metro Ryan Fld Airport
  icao: KBTR
  lat: 30.5332
  created_at: 0000-00-00 00:00:00
airports_072: 
  country_code: US
  city: Oakland
  name: Metropolitan Oakland Intl
  updated_at: 0000-00-00 00:00:00
  boarding_gate_cost_new_default: 0
  taxi_duration_default: 70
  altitude: 9
  code: OAK
  country: United States
  timezone_id: -8
  lng: -122.221
  iata: OAK
  id: 72
  terminal_cost_new: 0
  dst_code: A
  display_name: Metropolitan Oakland Intl Airport
  icao: KOAK
  lat: 37.7213
  created_at: 0000-00-00 00:00:00
airports_100: 
  country_code: US
  city: Syracuse
  name: Syracuse Hancock Intl
  updated_at: 0000-00-00 00:00:00
  boarding_gate_cost_new_default: 0
  taxi_duration_default: 70
  altitude: 421
  code: SYR
  country: United States
  timezone_id: -5
  lng: -76.1063
  iata: SYR
  id: 100
  terminal_cost_new: 0
  dst_code: A
  display_name: Syracuse Hancock Intl Airport
  icao: KSYR
  lat: 43.1112
  created_at: 0000-00-00 00:00:00
airports_017: 
  country_code: US
  city: Burlington
  name: Burlington Intl
  updated_at: 0000-00-00 00:00:00
  boarding_gate_cost_new_default: 0
  taxi_duration_default: 70
  altitude: 335
  code: BTV
  country: United States
  timezone_id: -5
  lng: -73.1533
  iata: BTV
  id: 17
  terminal_cost_new: 0
  dst_code: A
  display_name: Burlington Intl Airport
  icao: KBTV
  lat: 44.4719
  created_at: 0000-00-00 00:00:00
airports_073: 
  country_code: US
  city: Kahului
  name: Kahului
  updated_at: 0000-00-00 00:00:00
  boarding_gate_cost_new_default: 0
  taxi_duration_default: 70
  altitude: 54
  code: OGG
  country: United States
  timezone_id: -10
  lng: -156.43
  iata: OGG
  id: 73
  terminal_cost_new: 0
  dst_code: N
  display_name: Kahului Airport
  icao: PHOG
  lat: 20.8986
  created_at: 0000-00-00 00:00:00
airports_045: 
  country_code: US
  city: Hilo
  name: Hilo Intl
  updated_at: 0000-00-00 00:00:00
  boarding_gate_cost_new_default: 0
  taxi_duration_default: 70
  altitude: 38
  code: ITO
  country: United States
  timezone_id: -10
  lng: -155.048
  iata: ITO
  id: 45
  terminal_cost_new: 0
  dst_code: N
  display_name: Hilo Intl Airport
  icao: PHTO
  lat: 19.7214
  created_at: 0000-00-00 00:00:00
airports_101: 
  country_code: US
  city: Tampa
  name: Tampa Intl
  updated_at: 0000-00-00 00:00:00
  boarding_gate_cost_new_default: 0
  taxi_duration_default: 70
  altitude: 26
  code: TPA
  country: United States
  timezone_id: -5
  lng: -82.5332
  iata: TPA
  id: 101
  terminal_cost_new: 0
  dst_code: A
  display_name: Tampa Intl Airport
  icao: KTPA
  lat: 27.9755
  created_at: 0000-00-00 00:00:00
airports_074: 
  country_code: US
  city: Ontario
  name: Ontario Intl
  updated_at: 0000-00-00 00:00:00
  boarding_gate_cost_new_default: 0
  taxi_duration_default: 70
  altitude: 944
  code: ONT
  country: United States
  timezone_id: -8
  lng: -117.601
  iata: ONT
  id: 74
  terminal_cost_new: 0
  dst_code: A
  display_name: Ontario Intl Airport
  icao: KONT
  lat: 34.056
  created_at: 0000-00-00 00:00:00
airports_046: 
  country_code: US
  city: Jackson Hole
  name: Jackson Hole Airport
  updated_at: 0000-00-00 00:00:00
  boarding_gate_cost_new_default: 0
  taxi_duration_default: 70
  altitude: 6451
  code: JAC
  country: United States
  timezone_id: -7
  lng: -110.738
  iata: JAC
  id: 46
  terminal_cost_new: 0
  dst_code: A
  display_name: Jackson Hole Airport
  icao: KJAC
  lat: 43.6073
  created_at: 0000-00-00 00:00:00
airports_018: 
  country_code: US
  city: Buffalo
  name: Buffalo Niagara Intl
  updated_at: 0000-00-00 00:00:00
  boarding_gate_cost_new_default: 0
  taxi_duration_default: 70
  altitude: 724
  code: BUF
  country: United States
  timezone_id: -5
  lng: -78.7322
  iata: BUF
  id: 18
  terminal_cost_new: 0
  dst_code: A
  display_name: Buffalo Niagara Intl Airport
  icao: KBUF
  lat: 42.9405
  created_at: 0000-00-00 00:00:00
airports_075: 
  country_code: US
  city: Chicago
  name: Chicago Ohare Intl
  updated_at: 0000-00-00 00:00:00
  boarding_gate_cost_new_default: 0
  taxi_duration_default: 70
  altitude: 668
  code: ORD
  country: United States
  timezone_id: -6
  lng: -87.9048
  iata: ORD
  id: 75
  terminal_cost_new: 0
  dst_code: A
  display_name: Chicago Ohare Intl Airport
  icao: KORD
  lat: 41.9786
  created_at: 0000-00-00 00:00:00
airports_047: 
  country_code: US
  city: Jackson
  name: Jackson Evers Intl
  updated_at: 0000-00-00 00:00:00
  boarding_gate_cost_new_default: 0
  taxi_duration_default: 70
  altitude: 346
  code: JAN
  country: United States
  timezone_id: -6
  lng: -90.0759
  iata: JAN
  id: 47
  terminal_cost_new: 0
  dst_code: A
  display_name: Jackson Evers Intl Airport
  icao: KJAN
  lat: 32.3112
  created_at: 0000-00-00 00:00:00
airports_102: 
  country_code: US
  city: Tulsa
  name: Tulsa Intl
  updated_at: 0000-00-00 00:00:00
  boarding_gate_cost_new_default: 0
  taxi_duration_default: 70
  altitude: 677
  code: TUL
  country: United States
  timezone_id: -6
  lng: -95.8881
  iata: TUL
  id: 102
  terminal_cost_new: 0
  dst_code: A
  display_name: Tulsa Intl Airport
  icao: KTUL
  lat: 36.1984
  created_at: 0000-00-00 00:00:00
airports_019: 
  country_code: US
  city: Burbank
  name: Bob Hope
  updated_at: 0000-00-00 00:00:00
  boarding_gate_cost_new_default: 0
  taxi_duration_default: 70
  altitude: 778
  code: BUR
  country: United States
  timezone_id: -8
  lng: -118.359
  iata: BUR
  id: 19
  terminal_cost_new: 0
  dst_code: A
  display_name: Burbank - Bob Hope Airport
  icao: KBUR
  lat: 34.2007
  created_at: 0000-00-00 00:00:00
airports_076: 
  country_code: US
  city: Norfolk
  name: Norfolk Intl
  updated_at: 0000-00-00 00:00:00
  boarding_gate_cost_new_default: 0
  taxi_duration_default: 70
  altitude: 26
  code: ORF
  country: United States
  timezone_id: -5
  lng: -76.2012
  iata: ORF
  id: 76
  terminal_cost_new: 0
  dst_code: A
  display_name: Norfolk Intl Airport
  icao: KORF
  lat: 36.8946
  created_at: 0000-00-00 00:00:00
airports_048: 
  country_code: US
  city: Jacksonville
  name: Jacksonville Intl
  updated_at: 0000-00-00 00:00:00
  boarding_gate_cost_new_default: 0
  taxi_duration_default: 70
  altitude: 30
  code: JAX
  country: United States
  timezone_id: -5
  lng: -81.6879
  iata: JAX
  id: 48
  terminal_cost_new: 0
  dst_code: A
  display_name: Jacksonville Intl Airport
  icao: KJAX
  lat: 30.4941
  created_at: 0000-00-00 00:00:00
airports_103: 
  country_code: US
  city: Tucson
  name: Tucson Intl
  updated_at: 0000-00-00 00:00:00
  boarding_gate_cost_new_default: 0
  taxi_duration_default: 70
  altitude: 2643
  code: TUS
  country: United States
  timezone_id: -7
  lng: -110.941
  iata: TUS
  id: 103
  terminal_cost_new: 0
  dst_code: N
  display_name: Tucson Intl Airport
  icao: KTUS
  lat: 32.1161
  created_at: 0000-00-00 00:00:00
airports_077: 
  country_code: US
  city: West Palm Beach
  name: Palm Beach Intl
  updated_at: 0000-00-00 00:00:00
  boarding_gate_cost_new_default: 0
  taxi_duration_default: 70
  altitude: 19
  code: PBI
  country: United States
  timezone_id: -5
  lng: -80.0956
  iata: PBI
  id: 77
  terminal_cost_new: 0
  dst_code: A
  display_name: West Palm Beach - Palm Beach Intl Airport
  icao: KPBI
  lat: 26.6832
  created_at: 0000-00-00 00:00:00
airports_049: 
  country_code: US
  city: New York
  name: John F Kennedy Intl
  updated_at: 0000-00-00 00:00:00
  boarding_gate_cost_new_default: 0
  taxi_duration_default: 70
  altitude: 13
  code: JFK
  country: United States
  timezone_id: -5
  lng: -73.7789
  iata: JFK
  id: 49
  terminal_cost_new: 0
  dst_code: A
  display_name: New York - John F Kennedy Intl Airport
  icao: KJFK
  lat: 40.6398
  created_at: 0000-00-00 00:00:00
airports_104: 
  country_code: CA
  city: Edmonton
  name: Edmonton Intl
  updated_at: 0000-00-00 00:00:00
  boarding_gate_cost_new_default: 0
  taxi_duration_default: 70
  altitude: 2373
  code: YEG
  country: Canada
  timezone_id: -7
  lng: -113.58
  iata: YEG
  id: 104
  terminal_cost_new: 0
  dst_code: A
  display_name: Edmonton Intl Airport
  icao: CYEG
  lat: 53.3097
  created_at: 0000-00-00 00:00:00
airports_078: 
  country_code: US
  city: Portland
  name: Portland Intl
  updated_at: 0000-00-00 00:00:00
  boarding_gate_cost_new_default: 0
  taxi_duration_default: 70
  altitude: 30
  code: PDX
  country: United States
  timezone_id: -8
  lng: -122.598
  iata: PDX
  id: 78
  terminal_cost_new: 0
  dst_code: A
  display_name: Portland Intl Airport
  icao: KPDX
  lat: 45.5887
  created_at: 0000-00-00 00:00:00
airports_105: 
  country_code: CA
  city: Halifax
  name: Halifax Intl
  updated_at: 0000-00-00 00:00:00
  boarding_gate_cost_new_default: 0
  taxi_duration_default: 70
  altitude: 477
  code: YHZ
  country: Canada
  timezone_id: -4
  lng: -63.5086
  iata: YHZ
  id: 105
  terminal_cost_new: 0
  dst_code: A
  display_name: Halifax Intl Airport
  icao: CYHZ
  lat: 44.8808
  created_at: 0000-00-00 00:00:00
airports_020: 
  country_code: US
  city: Baltimore
  name: Baltimore Washington Intl
  updated_at: 0000-00-00 00:00:00
  boarding_gate_cost_new_default: 0
  taxi_duration_default: 70
  altitude: 146
  code: BWI
  country: United States
  timezone_id: -5
  lng: -76.6683
  iata: BWI
  id: 20
  terminal_cost_new: 0
  dst_code: A
  display_name: Baltimore Washington Intl Airport
  icao: KBWI
  lat: 39.1754
  created_at: 0000-00-00 00:00:00
airports_079: 
  country_code: US
  city: Philadelphia
  name: Philadelphia Intl
  updated_at: 0000-00-00 00:00:00
  boarding_gate_cost_new_default: 0
  taxi_duration_default: 70
  altitude: 36
  code: PHL
  country: United States
  timezone_id: -5
  lng: -75.2411
  iata: PHL
  id: 79
  terminal_cost_new: 0
  dst_code: A
  display_name: Philadelphia Intl Airport
  icao: KPHL
  lat: 39.8719
  created_at: 0000-00-00 00:00:00
airports_021: 
  country_code: US
  city: Cleveland
  name: Cleveland Hopkins Intl
  updated_at: 0000-00-00 00:00:00
  boarding_gate_cost_new_default: 0
  taxi_duration_default: 70
  altitude: 791
  code: CLE
  country: United States
  timezone_id: -5
  lng: -81.8498
  iata: CLE
  id: 21
  terminal_cost_new: 0
  dst_code: A
  display_name: Cleveland Hopkins Intl Airport
  icao: KCLE
  lat: 41.4117
  created_at: 0000-00-00 00:00:00
airports_106: 
  country_code: CA
  city: Ottawa
  name: Ottawa Macdonald Cartier Intl
  updated_at: 0000-00-00 00:00:00
  boarding_gate_cost_new_default: 0
  taxi_duration_default: 70
  altitude: 374
  code: YOW
  country: Canada
  timezone_id: -5
  lng: -75.6692
  iata: YOW
  id: 106
  terminal_cost_new: 0
  dst_code: A
  display_name: Ottawa Macdonald Cartier Intl Airport
  icao: CYOW
  lat: 45.3225
  created_at: 0000-00-00 00:00:00
airports_022: 
  country_code: US
  city: Charlotte
  name: Charlotte Douglas Intl
  updated_at: 0000-00-00 00:00:00
  boarding_gate_cost_new_default: 0
  taxi_duration_default: 70
  altitude: 748
  code: CLT
  country: United States
  timezone_id: -5
  lng: -80.9431
  iata: CLT
  id: 22
  terminal_cost_new: 0
  dst_code: A
  display_name: Charlotte Douglas Intl Airport
  icao: KCLT
  lat: 35.214
  created_at: 0000-00-00 00:00:00
airports_107: 
  country_code: CA
  city: Quebec
  name: Quebec Jean Lesage Intl
  updated_at: 0000-00-00 00:00:00
  boarding_gate_cost_new_default: 0
  taxi_duration_default: 70
  altitude: 244
  code: YQB
  country: Canada
  timezone_id: -5
  lng: -71.3933
  iata: YQB
  id: 107
  terminal_cost_new: 0
  dst_code: A
  display_name: Quebec Jean Lesage Intl Airport
  icao: CYQB
  lat: 46.7911
  created_at: 0000-00-00 00:00:00
airports_050: 
  country_code: US
  city: Juneau
  name: Juneau Intl
  updated_at: 0000-00-00 00:00:00
  boarding_gate_cost_new_default: 0
  taxi_duration_default: 70
  altitude: 21
  code: JNU
  country: United States
  timezone_id: -9
  lng: -134.576
  iata: JNU
  id: 50
  terminal_cost_new: 0
  dst_code: A
  display_name: Juneau Intl Airport
  icao: PAJN
  lat: 58.355
  created_at: 0000-00-00 00:00:00
airports_023: 
  country_code: US
  city: Columbus
  name: Port Columbus Intl
  updated_at: 0000-00-00 00:00:00
  boarding_gate_cost_new_default: 0
  taxi_duration_default: 70
  altitude: 815
  code: CMH
  country: United States
  timezone_id: -5
  lng: -82.8919
  iata: CMH
  id: 23
  terminal_cost_new: 0
  dst_code: A
  display_name: Port Columbus Intl Airport
  icao: KCMH
  lat: 39.998
  created_at: 0000-00-00 00:00:00
airports_108: 
  country_code: CA
  city: Regina
  name: Regina Intl
  updated_at: 0000-00-00 00:00:00
  boarding_gate_cost_new_default: 0
  taxi_duration_default: 70
  altitude: 1894
  code: YQR
  country: Canada
  timezone_id: -6
  lng: -104.666
  iata: YQR
  id: 108
  terminal_cost_new: 0
  dst_code: A
  display_name: Regina Intl Airport
  icao: CYQR
  lat: 50.4319
  created_at: 0000-00-00 00:00:00
airports_051: 
  country_code: US
  city: Kona
  name: Kona Intl At Keahole
  updated_at: 0000-00-00 00:00:00
  boarding_gate_cost_new_default: 0
  taxi_duration_default: 70
  altitude: 47
  code: KOA
  country: United States
  timezone_id: -10
  lng: -156.046
  iata: KOA
  id: 51
  terminal_cost_new: 0
  dst_code: N
  display_name: Kona Intl At Keahole Airport
  icao: PHKO
  lat: 19.7388
  created_at: 0000-00-00 00:00:00
airports_080: 
  country_code: US
  city: Phoenix
  name: Phoenix Sky Harbor Intl
  updated_at: 0000-00-00 00:00:00
  boarding_gate_cost_new_default: 0
  taxi_duration_default: 70
  altitude: 1135
  code: PHX
  country: United States
  timezone_id: -7
  lng: -112.012
  iata: PHX
  id: 80
  terminal_cost_new: 0
  dst_code: N
  display_name: Phoenix Sky Harbor Intl Airport
  icao: KPHX
  lat: 33.4343
  created_at: 0000-00-00 00:00:00
airports_109: 
  country_code: CA
  city: Gander
  name: Gander Intl
  updated_at: 0000-00-00 00:00:00
  boarding_gate_cost_new_default: 0
  taxi_duration_default: 70
  altitude: 496
  code: YQX
  country: Canada
  timezone_id: -4
  lng: -54.5681
  iata: YQX
  id: 109
  terminal_cost_new: 0
  dst_code: A
  display_name: Gander Intl Airport
  icao: CYQX
  lat: 48.9369
  created_at: 0000-00-00 00:00:00
airports_052: 
  country_code: US
  city: Las Vegas
  name: Mc Carran Intl
  updated_at: 0000-00-00 00:00:00
  boarding_gate_cost_new_default: 0
  taxi_duration_default: 70
  altitude: 2141
  code: LAS
  country: United States
  timezone_id: -8
  lng: -115.152
  iata: LAS
  id: 52
  terminal_cost_new: 0
  dst_code: A
  display_name: Las Vegas - Mc Carran Intl Airport
  icao: KLAS
  lat: 36.0801
  created_at: 0000-00-00 00:00:00
airports_024: 
  country_code: US
  city: Cincinnati
  name: Cincinnati Northern Kentucky Intl
  updated_at: 0000-00-00 00:00:00
  boarding_gate_cost_new_default: 0
  taxi_duration_default: 70
  altitude: 896
  code: CVG
  country: United States
  timezone_id: -5
  lng: -84.6678
  iata: CVG
  id: 24
  terminal_cost_new: 0
  dst_code: A
  display_name: Cincinnati Northern Kentucky Intl Airport
  icao: KCVG
  lat: 39.0488
  created_at: 0000-00-00 00:00:00
airports_081: 
  country_code: US
  city: Pittsburgh
  name: Pittsburgh Intl
  updated_at: 0000-00-00 00:00:00
  boarding_gate_cost_new_default: 0
  taxi_duration_default: 70
  altitude: 1204
  code: PIT
  country: United States
  timezone_id: -5
  lng: -80.2329
  iata: PIT
  id: 81
  terminal_cost_new: 0
  dst_code: A
  display_name: Pittsburgh Intl Airport
  icao: KPIT
  lat: 40.4915
  created_at: 0000-00-00 00:00:00
airports_053: 
  country_code: US
  city: Los Angeles
  name: Los Angeles Intl
  updated_at: 0000-00-00 00:00:00
  boarding_gate_cost_new_default: 0
  taxi_duration_default: 70
  altitude: 126
  code: LAX
  country: United States
  timezone_id: -8
  lng: -118.408
  iata: LAX
  id: 53
  terminal_cost_new: 0
  dst_code: A
  display_name: Los Angeles Intl Airport
  icao: KLAX
  lat: 33.9425
  created_at: 0000-00-00 00:00:00
airports_025: 
  country_code: US
  city: Daytona Beach
  name: Daytona Beach Intl
  updated_at: 0000-00-00 00:00:00
  boarding_gate_cost_new_default: 0
  taxi_duration_default: 70
  altitude: 34
  code: DAB
  country: United States
  timezone_id: -5
  lng: -81.0581
  iata: DAB
  id: 25
  terminal_cost_new: 0
  dst_code: A
  display_name: Daytona Beach Intl Airport
  icao: KDAB
  lat: 29.1799
  created_at: 0000-00-00 00:00:00
airports_082: 
  country_code: US
  city: Palm Springs
  name: Palm Springs Intl
  updated_at: 0000-00-00 00:00:00
  boarding_gate_cost_new_default: 0
  taxi_duration_default: 70
  altitude: 477
  code: PSP
  country: United States
  timezone_id: -8
  lng: -116.507
  iata: PSP
  id: 82
  terminal_cost_new: 0
  dst_code: A
  display_name: Palm Springs Intl Airport
  icao: KPSP
  lat: 33.8297
  created_at: 0000-00-00 00:00:00
airports_054: 
  country_code: US
  city: Lubbock
  name: Lubbock Preston Smith Intl
  updated_at: 0000-00-00 00:00:00
  boarding_gate_cost_new_default: 0
  taxi_duration_default: 70
  altitude: 3282
  code: LBB
  country: United States
  timezone_id: -6
  lng: -101.823
  iata: LBB
  id: 54
  terminal_cost_new: 0
  dst_code: A
  display_name: Lubbock Preston Smith Intl Airport
  icao: KLBB
  lat: 33.6636
  created_at: 0000-00-00 00:00:00
airports_026: 
  country_code: US
  city: Dallas
  name: Dallas Love Fld
  updated_at: 0000-00-00 00:00:00
  boarding_gate_cost_new_default: 0
  taxi_duration_default: 70
  altitude: 487
  code: DAL
  country: United States
  timezone_id: -6
  lng: -96.8518
  iata: DAL
  id: 26
  terminal_cost_new: 0
  dst_code: A
  display_name: Dallas Love Fld Airport
  icao: KDAL
  lat: 32.8471
  created_at: 0000-00-00 00:00:00
airports_083: 
  country_code: US
  city: Providence
  name: Theodore Francis Green State
  updated_at: 0000-00-00 00:00:00
  boarding_gate_cost_new_default: 0
  taxi_duration_default: 70
  altitude: 55
  code: PVD
  country: United States
  timezone_id: -5
  lng: -71.4204
  iata: PVD
  id: 83
  terminal_cost_new: 0
  dst_code: A
  display_name: Providence - Theodore Francis Green State Airport
  icao: KPVD
  lat: 41.7326
  created_at: 0000-00-00 00:00:00
airports_055: 
  country_code: US
  city: New York
  name: La Guardia
  updated_at: 0000-00-00 00:00:00
  boarding_gate_cost_new_default: 0
  taxi_duration_default: 70
  altitude: 22
  code: LGA
  country: United States
  timezone_id: -5
  lng: -73.8726
  iata: LGA
  id: 55
  terminal_cost_new: 0
  dst_code: A
  display_name: New York - La Guardia Airport
  icao: KLGA
  lat: 40.7772
  created_at: 0000-00-00 00:00:00
airports_110: 
  country_code: CA
  city: Montreal
  name: Pierre Elliott Trudeau Intl
  updated_at: 0000-00-00 00:00:00
  boarding_gate_cost_new_default: 0
  taxi_duration_default: 70
  altitude: 118
  code: YUL
  country: Canada
  timezone_id: -5
  lng: -73.7408
  iata: YUL
  id: 110
  terminal_cost_new: 0
  dst_code: A
  display_name: Montreal - Pierre Elliott Trudeau Intl Airport
  icao: CYUL
  lat: 45.4706
  created_at: 0000-00-00 00:00:00
airports_027: 
  country_code: US
  city: Dayton
  name: James M Cox Dayton Intl
  updated_at: 0000-00-00 00:00:00
  boarding_gate_cost_new_default: 0
  taxi_duration_default: 70
  altitude: 1009
  code: DAY
  country: United States
  timezone_id: -5
  lng: -84.2194
  iata: DAY
  id: 27
  terminal_cost_new: 0
  dst_code: A
  display_name: James M Cox Dayton Intl Airport
  icao: KDAY
  lat: 39.9024
  created_at: 0000-00-00 00:00:00
airports_084: 
  country_code: US
  city: Raleigh-Durham
  name: Raleigh-Durham Intl
  updated_at: 0000-00-00 00:00:00
  boarding_gate_cost_new_default: 0
  taxi_duration_default: 70
  altitude: 435
  code: RDU
  country: United States
  timezone_id: -5
  lng: -78.7875
  iata: RDU
  id: 84
  terminal_cost_new: 0
  dst_code: A
  display_name: Raleigh-Durham Intl Airport
  icao: KRDU
  lat: 35.8776
  created_at: 0000-00-00 00:00:00
airports_056: 
  country_code: US
  city: Long Beach
  name: Long Beach
  updated_at: 0000-00-00 00:00:00
  boarding_gate_cost_new_default: 0
  taxi_duration_default: 70
  altitude: 60
  code: LGB
  country: United States
  timezone_id: -8
  lng: -118.152
  iata: LGB
  id: 56
  terminal_cost_new: 0
  dst_code: A
  display_name: Long Beach Airport
  icao: KLGB
  lat: 33.8177
  created_at: 0000-00-00 00:00:00
airports_111: 
  country_code: CA
  city: Vancouver
  name: Vancouver Intl
  updated_at: 0000-00-00 00:00:00
  boarding_gate_cost_new_default: 0
  taxi_duration_default: 70
  altitude: 14
  code: YVR
  country: Canada
  timezone_id: -8
  lng: -123.184
  iata: YVR
  id: 111
  terminal_cost_new: 0
  dst_code: A
  display_name: Vancouver Intl Airport
  icao: CYVR
  lat: 49.1939
  created_at: 0000-00-00 00:00:00
airports_028: 
  country_code: US
  city: Denver
  name: Denver Intl
  updated_at: 0000-00-00 00:00:00
  boarding_gate_cost_new_default: 0
  taxi_duration_default: 70
  altitude: 5431
  code: DEN
  country: United States
  timezone_id: -7
  lng: -104.673
  iata: DEN
  id: 28
  terminal_cost_new: 0
  dst_code: A
  display_name: Denver Intl Airport
  icao: KDEN
  lat: 39.8617
  created_at: 0000-00-00 00:00:00
airports_085: 
  country_code: US
  city: Richmond
  name: Richmond Intl
  updated_at: 0000-00-00 00:00:00
  boarding_gate_cost_new_default: 0
  taxi_duration_default: 70
  altitude: 167
  code: RIC
  country: United States
  timezone_id: -5
  lng: -77.3197
  iata: RIC
  id: 85
  terminal_cost_new: 0
  dst_code: A
  display_name: Richmond Intl Airport
  icao: KRIC
  lat: 37.5052
  created_at: 0000-00-00 00:00:00
airports_057: 
  country_code: US
  city: Lihue
  name: Lihue
  updated_at: 0000-00-00 00:00:00
  boarding_gate_cost_new_default: 0
  taxi_duration_default: 70
  altitude: 153
  code: LIH
  country: United States
  timezone_id: -10
  lng: -159.339
  iata: LIH
  id: 57
  terminal_cost_new: 0
  dst_code: N
  display_name: Lihue Airport
  icao: PHLI
  lat: 21.976
  created_at: 0000-00-00 00:00:00
airports_112: 
  country_code: CA
  city: Winnipeg
  name: Winnipeg Intl
  updated_at: 0000-00-00 00:00:00
  boarding_gate_cost_new_default: 0
  taxi_duration_default: 70
  altitude: 783
  code: YWG
  country: Canada
  timezone_id: -6
  lng: -97.2399
  iata: YWG
  id: 112
  terminal_cost_new: 0
  dst_code: A
  display_name: Winnipeg Intl Airport
  icao: CYWG
  lat: 49.91
  created_at: 0000-00-00 00:00:00
airports_086: 
  country_code: US
  city: Reno
  name: Reno Tahoe Intl
  updated_at: 0000-00-00 00:00:00
  boarding_gate_cost_new_default: 0
  taxi_duration_default: 70
  altitude: 4415
  code: RNO
  country: United States
  timezone_id: -8
  lng: -119.768
  iata: RNO
  id: 86
  terminal_cost_new: 0
  dst_code: A
  display_name: Reno Tahoe Intl Airport
  icao: KRNO
  lat: 39.4991
  created_at: 0000-00-00 00:00:00
airports_058: 
  country_code: US
  city: Kansas City
  name: Kansas City Intl
  updated_at: 0000-00-00 00:00:00
  boarding_gate_cost_new_default: 0
  taxi_duration_default: 70
  altitude: 1026
  code: MCI
  country: United States
  timezone_id: -6
  lng: -94.7139
  iata: MCI
  id: 58
  terminal_cost_new: 0
  dst_code: A
  display_name: Kansas City Intl Airport
  icao: KMCI
  lat: 39.2976
  created_at: 0000-00-00 00:00:00
airports_113: 
  country_code: CA
  city: Saskatoon
  name: Saskatoon J G Diefenbaker Intl
  updated_at: 0000-00-00 00:00:00
  boarding_gate_cost_new_default: 0
  taxi_duration_default: 70
  altitude: 1653
  code: YXE
  country: Canada
  timezone_id: -6
  lng: -106.7
  iata: YXE
  id: 113
  terminal_cost_new: 0
  dst_code: A
  display_name: Saskatoon J G Diefenbaker Intl Airport
  icao: CYXE
  lat: 52.1708
  created_at: 0000-00-00 00:00:00
airports_029: 
  country_code: US
  city: Dallas-Fort Worth
  name: Dallas-Fort Worth Intl
  updated_at: 0000-00-00 00:00:00
  boarding_gate_cost_new_default: 0
  taxi_duration_default: 70
  altitude: 607
  code: DFW
  country: United States
  timezone_id: -6
  lng: -97.038
  iata: DFW
  id: 29
  terminal_cost_new: 0
  dst_code: A
  display_name: Dallas-Fort Worth Intl Airport
  icao: KDFW
  lat: 32.8968
  created_at: 0000-00-00 00:00:00
airports_059: 
  country_code: US
  city: Orlando
  name: Orlando Intl
  updated_at: 0000-00-00 00:00:00
  boarding_gate_cost_new_default: 0
  taxi_duration_default: 70
  altitude: 96
  code: MCO
  country: United States
  timezone_id: -5
  lng: -81.309
  iata: MCO
  id: 59
  terminal_cost_new: 0
  dst_code: A
  display_name: Orlando Intl Airport
  icao: KMCO
  lat: 28.4294
  created_at: 0000-00-00 00:00:00
airports_114: 
  country_code: CA
  city: Whitehorse
  name: Whitehorse Intl
  updated_at: 0000-00-00 00:00:00
  boarding_gate_cost_new_default: 0
  taxi_duration_default: 70
  altitude: 2317
  code: YXY
  country: Canada
  timezone_id: -8
  lng: -135.067
  iata: YXY
  id: 114
  terminal_cost_new: 0
  dst_code: A
  display_name: Whitehorse Intl Airport
  icao: CYXY
  lat: 60.7096
  created_at: 0000-00-00 00:00:00
airports_087: 
  country_code: US
  city: Rochester
  name: Greater Rochester Intl
  updated_at: 0000-00-00 00:00:00
  boarding_gate_cost_new_default: 0
  taxi_duration_default: 70
  altitude: 559
  code: ROC
  country: United States
  timezone_id: -5
  lng: -77.6724
  iata: ROC
  id: 87
  terminal_cost_new: 0
  dst_code: A
  display_name: Greater Rochester Intl Airport
  icao: KROC
  lat: 43.1189
  created_at: 0000-00-00 00:00:00
airports_115: 
  country_code: CA
  city: Calgary
  name: Calgary Intl
  updated_at: 0000-00-00 00:00:00
  boarding_gate_cost_new_default: 0
  taxi_duration_default: 70
  altitude: 3557
  code: YYC
  country: Canada
  timezone_id: -7
  lng: -114.02
  iata: YYC
  id: 115
  terminal_cost_new: 0
  dst_code: A
  display_name: Calgary Intl Airport
  icao: CYYC
  lat: 51.1139
  created_at: 0000-00-00 00:00:00
airports_001: 
  country_code: US
  city: Allentown
  name: Lehigh Valley Intl
  updated_at: 0000-00-00 00:00:00
  boarding_gate_cost_new_default: 0
  taxi_duration_default: 70
  altitude: 393
  code: ABE
  country: United States
  timezone_id: -5
  lng: -75.4408
  iata: ABE
  id: 1
  terminal_cost_new: 0
  dst_code: A
  display_name: Allentown - Lehigh Valley Intl Airport
  icao: KABE
  lat: 40.6521
  created_at: 0000-00-00 00:00:00
airports_088: 
  country_code: US
  city: Fort Myers
  name: Southwest Florida Intl
  updated_at: 0000-00-00 00:00:00
  boarding_gate_cost_new_default: 0
  taxi_duration_default: 70
  altitude: 30
  code: RSW
  country: United States
  timezone_id: -5
  lng: -81.7552
  iata: RSW
  id: 88
  terminal_cost_new: 0
  dst_code: A
  display_name: Fort Myers - Southwest Florida Intl Airport
  icao: KRSW
  lat: 26.5362
  created_at: 0000-00-00 00:00:00
airports_116: 
  country_code: CA
  city: Victoria
  name: Victoria Intl
  updated_at: 0000-00-00 00:00:00
  boarding_gate_cost_new_default: 0
  taxi_duration_default: 70
  altitude: 63
  code: YYJ
  country: Canada
  timezone_id: -8
  lng: -123.426
  iata: YYJ
  id: 116
  terminal_cost_new: 0
  dst_code: A
  display_name: Victoria Intl Airport
  icao: CYYJ
  lat: 48.6469
  created_at: 0000-00-00 00:00:00
airports_002: 
  country_code: US
  city: Albuquerque
  name: Albuquerque International Sunport
  updated_at: 0000-00-00 00:00:00
  boarding_gate_cost_new_default: 0
  taxi_duration_default: 70
  altitude: 5355
  code: ABQ
  country: United States
  timezone_id: -7
  lng: -106.609
  iata: ABQ
  id: 2
  terminal_cost_new: 0
  dst_code: A
  display_name: Albuquerque International Sunport
  icao: KABQ
  lat: 35.0402
  created_at: 0000-00-00 00:00:00
airports_030: 
  country_code: US
  city: Des Moines
  name: Des Moines Intl
  updated_at: 0000-00-00 00:00:00
  boarding_gate_cost_new_default: 0
  taxi_duration_default: 70
  altitude: 958
  code: DSM
  country: United States
  timezone_id: -6
  lng: -93.6631
  iata: DSM
  id: 30
  terminal_cost_new: 0
  dst_code: A
  display_name: Des Moines Intl Airport
  icao: KDSM
  lat: 41.534
  created_at: 0000-00-00 00:00:00
airports_089: 
  country_code: US
  city: San Diego
  name: San Diego Intl
  updated_at: 0000-00-00 00:00:00
  boarding_gate_cost_new_default: 0
  taxi_duration_default: 70
  altitude: 17
  code: SAN
  country: United States
  timezone_id: -8
  lng: -117.19
  iata: SAN
  id: 89
  terminal_cost_new: 0
  dst_code: A
  display_name: San Diego Intl Airport
  icao: KSAN
  lat: 32.7336
  created_at: 0000-00-00 00:00:00
airports_031: 
  country_code: US
  city: El Paso
  name: El Paso Intl
  updated_at: 0000-00-00 00:00:00
  boarding_gate_cost_new_default: 0
  taxi_duration_default: 70
  altitude: 3958
  code: ELP
  country: United States
  timezone_id: -7
  lng: -106.378
  iata: ELP
  id: 31
  terminal_cost_new: 0
  dst_code: A
  display_name: El Paso Intl Airport
  icao: KELP
  lat: 31.8072
  created_at: 0000-00-00 00:00:00
airports_003: 
  country_code: US
  city: Atlantic City
  name: Atlantic City Intl
  updated_at: 0000-00-00 00:00:00
  boarding_gate_cost_new_default: 0
  taxi_duration_default: 70
  altitude: 75
  code: ACY
  country: United States
  timezone_id: -5
  lng: -74.5772
  iata: ACY
  id: 3
  terminal_cost_new: 0
  dst_code: A
  display_name: Atlantic City Intl Airport
  icao: KACY
  lat: 39.4576
  created_at: 0000-00-00 00:00:00
airports_117: 
  country_code: CA
  city: St. Johns
  name: St Johns Intl
  updated_at: 0000-00-00 00:00:00
  boarding_gate_cost_new_default: 0
  taxi_duration_default: 70
  altitude: 461
  code: YYT
  country: Canada
  timezone_id: -4
  lng: -52.7519
  iata: YYT
  id: 117
  terminal_cost_new: 0
  dst_code: A
  display_name: St. Johns Intl Airport
  icao: CYYT
  lat: 47.6186
  created_at: 0000-00-00 00:00:00
airports_060: 
  country_code: US
  city: Harrisburg
  name: Harrisburg Intl
  updated_at: 0000-00-00 00:00:00
  boarding_gate_cost_new_default: 0
  taxi_duration_default: 70
  altitude: 310
  code: MDT
  country: United States
  timezone_id: -5
  lng: -76.7634
  iata: MDT
  id: 60
  terminal_cost_new: 0
  dst_code: A
  display_name: Harrisburg Intl Airport
  icao: KMDT
  lat: 40.1935
  created_at: 0000-00-00 00:00:00
airports_032: 
  country_code: US
  city: Newark
  name: Newark Liberty Intl
  updated_at: 0000-00-00 00:00:00
  boarding_gate_cost_new_default: 0
  taxi_duration_default: 70
  altitude: 18
  code: EWR
  country: United States
  timezone_id: -5
  lng: -74.1687
  iata: EWR
  id: 32
  terminal_cost_new: 0
  dst_code: A
  display_name: Newark Liberty Intl Airport
  icao: KEWR
  lat: 40.6925
  created_at: 0000-00-00 00:00:00
airports_004: 
  country_code: US
  city: Albany
  name: Albany Intl
  updated_at: 0000-00-00 00:00:00
  boarding_gate_cost_new_default: 0
  taxi_duration_default: 70
  altitude: 285
  code: ALB
  country: United States
  timezone_id: -5
  lng: -73.8017
  iata: ALB
  id: 4
  terminal_cost_new: 0
  dst_code: A
  display_name: Albany Intl Airport
  icao: KALB
  lat: 42.7483
  created_at: 0000-00-00 00:00:00
airports_118: 
  country_code: CA
  city: Toronto
  name: Lester B Pearson Intl
  updated_at: 0000-00-00 00:00:00
  boarding_gate_cost_new_default: 0
  taxi_duration_default: 70
  altitude: 569
  code: YYZ
  country: Canada
  timezone_id: -5
  lng: -79.6306
  iata: YYZ
  id: 118
  terminal_cost_new: 0
  dst_code: A
  display_name: Toronto - Lester B Pearson Intl Airport
  icao: CYYZ
  lat: 43.6772
  created_at: 0000-00-00 00:00:00
airports_061: 
  country_code: US
  city: Chicago
  name: Chicago Midway Intl
  updated_at: 0000-00-00 00:00:00
  boarding_gate_cost_new_default: 0
  taxi_duration_default: 70
  altitude: 620
  code: MDW
  country: United States
  timezone_id: -6
  lng: -87.7524
  iata: MDW
  id: 61
  terminal_cost_new: 0
  dst_code: A
  display_name: Chicago Midway Intl Airport
  icao: KMDW
  lat: 41.786
  created_at: 0000-00-00 00:00:00
airports_033: 
  country_code: US
  city: Fairbanks
  name: Fairbanks Intl
  updated_at: 0000-00-00 00:00:00
  boarding_gate_cost_new_default: 0
  taxi_duration_default: 70
  altitude: 434
  code: FAI
  country: United States
  timezone_id: -9
  lng: -147.856
  iata: FAI
  id: 33
  terminal_cost_new: 0
  dst_code: A
  display_name: Fairbanks Intl Airport
  icao: PAFA
  lat: 64.8151
  created_at: 0000-00-00 00:00:00
airports_005: 
  country_code: US
  city: Anchorage
  name: Ted Stevens Anchorage Intl
  updated_at: 0000-00-00 00:00:00
  boarding_gate_cost_new_default: 0
  taxi_duration_default: 70
  altitude: 152
  code: ANC
  country: United States
  timezone_id: -9
  lng: -149.996
  iata: ANC
  id: 5
  terminal_cost_new: 0
  dst_code: A
  display_name: Ted Stevens Anchorage Intl Airport
  icao: PANC
  lat: 61.1744
  created_at: 0000-00-00 00:00:00
airports_119: 
  country_code: CH
  city: Zurich
  name: Zurich
  updated_at: 0000-00-00 00:00:00
  boarding_gate_cost_new_default: 0
  taxi_duration_default: 70
  altitude: 1416
  code: ZRH
  country: Switzerland
  timezone_id: 1
  lng: 8.54917
  iata: ZRH
  id: 119
  terminal_cost_new: 0
  dst_code: E
  display_name: Zurich Airport
  icao: LSZH
  lat: 47.4647
  created_at: 0000-00-00 00:00:00
airports_062: 
  country_code: US
  city: Memphis
  name: Memphis Intl
  updated_at: 0000-00-00 00:00:00
  boarding_gate_cost_new_default: 0
  taxi_duration_default: 70
  altitude: 341
  code: MEM
  country: United States
  timezone_id: -6
  lng: -89.9767
  iata: MEM
  id: 62
  terminal_cost_new: 0
  dst_code: A
  display_name: Memphis Intl Airport
  icao: KMEM
  lat: 35.0424
  created_at: 0000-00-00 00:00:00
airports_034: 
  country_code: US
  city: Fort Lauderdale
  name: Fort Lauderdale Hollywood Intl
  updated_at: 0000-00-00 00:00:00
  boarding_gate_cost_new_default: 0
  taxi_duration_default: 70
  altitude: 9
  code: FLL
  country: United States
  timezone_id: -5
  lng: -80.1527
  iata: FLL
  id: 34
  terminal_cost_new: 0
  dst_code: A
  display_name: Fort Lauderdale Hollywood Intl Airport
  icao: KFLL
  lat: 26.0726
  created_at: 0000-00-00 00:00:00
airports_006: 
  country_code: US
  city: Atlanta
  name: Hartsfield Jackson Atlanta Intl
  updated_at: 0000-00-00 00:00:00
  boarding_gate_cost_new_default: 0
  taxi_duration_default: 70
  altitude: 1026
  code: ATL
  country: United States
  timezone_id: -5
  lng: -84.4281
  iata: ATL
  id: 6
  terminal_cost_new: 0
  dst_code: A
  display_name: Hartsfield Jackson Atlanta Intl Airport
  icao: KATL
  lat: 33.6367
  created_at: 0000-00-00 00:00:00
airports_090: 
  country_code: US
  city: San Antonio
  name: San Antonio Intl
  updated_at: 0000-00-00 00:00:00
  boarding_gate_cost_new_default: 0
  taxi_duration_default: 70
  altitude: 809
  code: SAT
  country: United States
  timezone_id: -6
  lng: -98.4698
  iata: SAT
  id: 90
  terminal_cost_new: 0
  dst_code: A
  display_name: San Antonio Intl Airport
  icao: KSAT
  lat: 29.5337
  created_at: 0000-00-00 00:00:00
airports_063: 
  country_code: US
  city: Medford
  name: Rogue Valley Intl Medford
  updated_at: 0000-00-00 00:00:00
  boarding_gate_cost_new_default: 0
  taxi_duration_default: 70
  altitude: 1335
  code: MFR
  country: United States
  timezone_id: -8
  lng: -122.873
  iata: MFR
  id: 63
  terminal_cost_new: 0
  dst_code: A
  display_name: Rogue Valley Intl Medford Airport
  icao: KMFR
  lat: 42.3742
  created_at: 0000-00-00 00:00:00
airports_035: 
  country_code: US
  city: Spokane
  name: Spokane Intl
  updated_at: 0000-00-00 00:00:00
  boarding_gate_cost_new_default: 0
  taxi_duration_default: 70
  altitude: 2376
  code: GEG
  country: United States
  timezone_id: -8
  lng: -117.534
  iata: GEG
  id: 35
  terminal_cost_new: 0
  dst_code: A
  display_name: Spokane Intl Airport
  icao: KGEG
  lat: 47.6199
  created_at: 0000-00-00 00:00:00
airports_091: 
  country_code: US
  city: Savannah
  name: Savannah Hilton Head Intl
  updated_at: 0000-00-00 00:00:00
  boarding_gate_cost_new_default: 0
  taxi_duration_default: 70
  altitude: 51
  code: SAV
  country: United States
  timezone_id: -5
  lng: -81.2021
  iata: SAV
  id: 91
  terminal_cost_new: 0
  dst_code: A
  display_name: Savannah Hilton Head Intl Airport
  icao: KSAV
  lat: 32.1276
  created_at: 0000-00-00 00:00:00
airports_064: 
  country_code: US
  city: Manchester
  name: Manchester Regional Airport
  updated_at: 0000-00-00 00:00:00
  boarding_gate_cost_new_default: 0
  taxi_duration_default: 70
  altitude: 266
  code: MHT
  country: United States
  timezone_id: -5
  lng: -71.4357
  iata: MHT
  id: 64
  terminal_cost_new: 0
  dst_code: A
  display_name: Manchester Regional Airport
  icao: KMHT
  lat: 42.9326
  created_at: 0000-00-00 00:00:00
airports_036: 
  country_code: US
  city: Grand Rapids
  name: Gerald R Ford Intl
  updated_at: 0000-00-00 00:00:00
  boarding_gate_cost_new_default: 0
  taxi_duration_default: 70
  altitude: 794
  code: GRR
  country: United States
  timezone_id: -5
  lng: -85.5228
  iata: GRR
  id: 36
  terminal_cost_new: 0
  dst_code: A
  display_name: Grand Rapids - Gerald R Ford Intl Airport
  icao: KGRR
  lat: 42.8808
  created_at: 0000-00-00 00:00:00
airports_007: 
  country_code: US
  city: Austin
  name: Austin Bergstrom Intl
  updated_at: 0000-00-00 00:00:00
  boarding_gate_cost_new_default: 0
  taxi_duration_default: 70
  altitude: 542
  code: AUS
  country: United States
  timezone_id: -6
  lng: -97.6699
  iata: AUS
  id: 7
  terminal_cost_new: 0
  dst_code: A
  display_name: Austin Bergstrom Intl Airport
  icao: KAUS
  lat: 30.1945
  created_at: 0000-00-00 00:00:00
airports_092: 
  country_code: US
  city: Louisville
  name: Louisville International Airport
  updated_at: 0000-00-00 00:00:00
  boarding_gate_cost_new_default: 0
  taxi_duration_default: 70
  altitude: 501
  code: SDF
  country: United States
  timezone_id: -5
  lng: -85.7365
  iata: SDF
  id: 92
  terminal_cost_new: 0
  dst_code: A
  display_name: Louisville International Airport
  icao: KSDF
  lat: 38.1741
  created_at: 0000-00-00 00:00:00
airports_120: 
  country_code: DE
  city: Munich
  name: Munchen
  updated_at: 0000-00-00 00:00:00
  boarding_gate_cost_new_default: 0
  taxi_duration_default: 70
  altitude: 1487
  code: MUC
  country: Germany
  timezone_id: 1
  lng: 11.7861
  iata: MUC
  id: 120
  terminal_cost_new: 0
  dst_code: E
  display_name: Munich - Munchen Airport
  icao: EDDM
  lat: 48.3538
  created_at: 0000-00-00 00:00:00
airports_065: 
  country_code: US
  city: Miami
  name: Miami Intl
  updated_at: 0000-00-00 00:00:00
  boarding_gate_cost_new_default: 0
  taxi_duration_default: 70
  altitude: 8
  code: MIA
  country: United States
  timezone_id: -5
  lng: -80.2906
  iata: MIA
  id: 65
  terminal_cost_new: 0
  dst_code: A
  display_name: Miami Intl Airport
  icao: KMIA
  lat: 25.7932
  created_at: 0000-00-00 00:00:00
airports_037: 
  country_code: US
  city: Honolulu
  name: Honolulu Intl
  updated_at: 0000-00-00 00:00:00
  boarding_gate_cost_new_default: 0
  taxi_duration_default: 70
  altitude: 13
  code: HNL
  country: United States
  timezone_id: -10
  lng: -157.922
  iata: HNL
  id: 37
  terminal_cost_new: 0
  dst_code: N
  display_name: Honolulu Intl Airport
  icao: PHIK
  lat: 21.3187
  created_at: 0000-00-00 00:00:00
airports_008: 
  country_code: US
  city: Scranton
  name: Wilkes Barre Scranton Intl
  updated_at: 0000-00-00 00:00:00
  boarding_gate_cost_new_default: 0
  taxi_duration_default: 70
  altitude: 962
  code: AVP
  country: United States
  timezone_id: -5
  lng: -75.7234
  iata: AVP
  id: 8
  terminal_cost_new: 0
  dst_code: A
  display_name: Wilkes Barre Scranton Intl Airport
  icao: KAVP
  lat: 41.3385
  created_at: 0000-00-00 00:00:00
airports_093: 
  country_code: US
  city: Seattle
  name: Seattle Tacoma Intl
  updated_at: 0000-00-00 00:00:00
  boarding_gate_cost_new_default: 0
  taxi_duration_default: 70
  altitude: 433
  code: SEA
  country: United States
  timezone_id: -8
  lng: -122.309
  iata: SEA
  id: 93
  terminal_cost_new: 0
  dst_code: A
  display_name: Seattle Tacoma Intl Airport
  icao: KSEA
  lat: 47.449
  created_at: 0000-00-00 00:00:00
airports_121: 
  country_code: AT
  city: Vienna
  name: Schwechat
  updated_at: 0000-00-00 00:00:00
  boarding_gate_cost_new_default: 0
  taxi_duration_default: 70
  altitude: 600
  code: VIE
  country: Austria
  timezone_id: 1
  lng: 16.5697
  iata: VIE
  id: 121
  terminal_cost_new: 0
  dst_code: E
  display_name: Vienna - Schwechat Airport
  icao: LOWW
  lat: 48.1103
  created_at: 0000-00-00 00:00:00
airports_038: 
  country_code: US
  city: Houston
  name: William P Hobby
  updated_at: 0000-00-00 00:00:00
  boarding_gate_cost_new_default: 0
  taxi_duration_default: 70
  altitude: 46
  code: HOU
  country: United States
  timezone_id: -6
  lng: -95.2789
  iata: HOU
  id: 38
  terminal_cost_new: 0
  dst_code: A
  display_name: Houston - William P Hobby Airport
  icao: KHOU
  lat: 29.6454
  created_at: 0000-00-00 00:00:00
airports_009: 
  country_code: US
  city: Windsor Locks
  name: Bradley Intl
  updated_at: 0000-00-00 00:00:00
  boarding_gate_cost_new_default: 0
  taxi_duration_default: 70
  altitude: 173
  code: BDL
  country: United States
  timezone_id: -5
  lng: -72.6832
  iata: BDL
  id: 9
  terminal_cost_new: 0
  dst_code: A
  display_name: Windsor Locks - Hartford Bradley Intl Airport
  icao: KBDL
  lat: 41.9389
  created_at: 0000-00-00 00:00:00
airports_094: 
  country_code: US
  city: San Francisco
  name: San Francisco Intl
  updated_at: 0000-00-00 00:00:00
  boarding_gate_cost_new_default: 0
  taxi_duration_default: 70
  altitude: 13
  code: SFO
  country: United States
  timezone_id: -8
  lng: -122.375
  iata: SFO
  id: 94
  terminal_cost_new: 0
  dst_code: A
  display_name: San Francisco Intl Airport
  icao: KSFO
  lat: 37.619
  created_at: 0000-00-00 00:00:00
airports_066: 
  country_code: US
  city: Milwaukee
  name: General Mitchell Intl
  updated_at: 0000-00-00 00:00:00
  boarding_gate_cost_new_default: 0
  taxi_duration_default: 70
  altitude: 723
  code: MKE
  country: United States
  timezone_id: -6
  lng: -87.8966
  iata: MKE
  id: 66
  terminal_cost_new: 0
  dst_code: A
  display_name: Milwaukee - General Mitchell Intl Airport
  icao: KMKE
  lat: 42.9472
  created_at: 0000-00-00 00:00:00
airports_122: 
  country_code: FR
  city: Paris
  name: Charles De Gaulle
  updated_at: 0000-00-00 00:00:00
  boarding_gate_cost_new_default: 0
  taxi_duration_default: 70
  altitude: 392
  code: CDG
  country: France
  timezone_id: 1
  lng: 2.55
  iata: CDG
  id: 122
  terminal_cost_new: 0
  dst_code: E
  display_name: Paris - Charles De Gaulle Airport
  icao: LFPG
  lat: 49.0128
  created_at: 0000-00-00 00:00:00
airports_039: 
  country_code: US
  city: Washington
  name: Washington Dulles Intl
  updated_at: 0000-00-00 00:00:00
  boarding_gate_cost_new_default: 0
  taxi_duration_default: 70
  altitude: 313
  code: IAD
  country: United States
  timezone_id: -5
  lng: -77.4558
  iata: IAD
  id: 39
  terminal_cost_new: 0
  dst_code: A
  display_name: Washington Dulles Intl Airport
  icao: KIAD
  lat: 38.9445
  created_at: 0000-00-00 00:00:00
airports_095: 
  country_code: US
  city: San Jose
  name: Norman Y Mineta San Jose Intl
  updated_at: 0000-00-00 00:00:00
  boarding_gate_cost_new_default: 0
  taxi_duration_default: 70
  altitude: 62
  code: SJC
  country: United States
  timezone_id: -8
  lng: -121.929
  iata: SJC
  id: 95
  terminal_cost_new: 0
  dst_code: A
  display_name: Norman Y Mineta San Jose Intl Airport
  icao: KSJC
  lat: 37.3626
  created_at: 0000-00-00 00:00:00
airports_067: 
  country_code: US
  city: Melbourne
  name: Melbourne Intl
  updated_at: 0000-00-00 00:00:00
  boarding_gate_cost_new_default: 0
  taxi_duration_default: 70
  altitude: 33
  code: MLB
  country: United States
  timezone_id: -5
  lng: -80.6453
  iata: MLB
  id: 67
  terminal_cost_new: 0
  dst_code: A
  display_name: Melbourne Intl Airport
  icao: KMLB
  lat: 28.1028
  created_at: 0000-00-00 00:00:00
airports_096: 
  country_code: US
  city: Salt Lake City
  name: Salt Lake City Intl
  updated_at: 0000-00-00 00:00:00
  boarding_gate_cost_new_default: 0
  taxi_duration_default: 70
  altitude: 4227
  code: SLC
  country: United States
  timezone_id: -7
  lng: -111.978
  iata: SLC
  id: 96
  terminal_cost_new: 0
  dst_code: A
  display_name: Salt Lake City Intl Airport
  icao: KSLC
  lat: 40.7884
  created_at: 0000-00-00 00:00:00
airports_068: 
  country_code: US
  city: Missoula
  name: Missoula Intl
  updated_at: 0000-00-00 00:00:00
  boarding_gate_cost_new_default: 0
  taxi_duration_default: 70
  altitude: 3205
  code: MSO
  country: United States
  timezone_id: -7
  lng: -114.091
  iata: MSO
  id: 68
  terminal_cost_new: 0
  dst_code: A
  display_name: Missoula Intl Airport
  icao: KMSO
  lat: 46.9163
  created_at: 0000-00-00 00:00:00
airports_097: 
  country_code: US
  city: Sacramento
  name: Sacramento Intl
  updated_at: 0000-00-00 00:00:00
  boarding_gate_cost_new_default: 0
  taxi_duration_default: 70
  altitude: 27
  code: SMF
  country: United States
  timezone_id: -8
  lng: -121.591
  iata: SMF
  id: 97
  terminal_cost_new: 0
  dst_code: A
  display_name: Sacramento Intl Airport
  icao: KSMF
  lat: 38.6954
  created_at: 0000-00-00 00:00:00
airports_010: 
  country_code: US
  city: Bangor
  name: Bangor Intl
  updated_at: 0000-00-00 00:00:00
  boarding_gate_cost_new_default: 0
  taxi_duration_default: 70
  altitude: 192
  code: BGR
  country: United States
  timezone_id: -5
  lng: -68.8281
  iata: BGR
  id: 10
  terminal_cost_new: 0
  dst_code: A
  display_name: Bangor Intl Airport
  icao: KBGR
  lat: 44.8074
  created_at: 0000-00-00 00:00:00
airports_069: 
  country_code: US
  city: Minneapolis
  name: Minneapolis St Paul Intl
  updated_at: 0000-00-00 00:00:00
  boarding_gate_cost_new_default: 0
  taxi_duration_default: 70
  altitude: 841
  code: MSP
  country: United States
  timezone_id: -6
  lng: -93.2218
  iata: MSP
  id: 69
  terminal_cost_new: 0
  dst_code: A
  display_name: Minneapolis St. Paul Intl Airport
  icao: KMSP
  lat: 44.882
  created_at: 0000-00-00 00:00:00

airports_098:
  country_code: US
  city: Santa Ana
  name: John Wayne Arpt Orange Co
  updated_at: 0000-00-00 00:00:00
  boarding_gate_cost_new_default: 0
  taxi_duration_default: 70
  altitude: 56
  code: SNA
  country: United States
  timezone_id: -8
  lng: -117.868
  iata: SNA
  id: 98
  terminal_cost_new: 0
  dst_code: A
  display_name: Santa Ana - John Wayne Orange Co Airport
  icao: KSNA
  lat: 33.6757
  created_at: 0000-00-00 00:00:00
airports_011: 
  country_code: US
  city: Birmingham
  name: Birmingham Intl
  updated_at: 0000-00-00 00:00:00
  boarding_gate_cost_new_default: 0
  taxi_duration_default: 70
  altitude: 644
  code: BHM
  country: United States
  timezone_id: -6
  lng: -86.7535
  iata: BHM
  id: 11
  terminal_cost_new: 0
  dst_code: A
  display_name: Birmingham Intl Airport
  icao: KBHM
  lat: 33.5629
  created_at: 0000-00-00 00:00:00
airports_123: 
  id: 123
  code: DCA	
  iata: DCA	
  icao: KDCA	
  name: Ronald Reagan Washington Natl	
  display_name: Ronald Reagan Washington Natl Airport	
  city: Washington	
  country_code: US	
  country: United States	
  lng: -77.037722	
  lat: 38.852083	
  timezone_id: -5	
  dst_code: A	
  altitude: 15

